[
	{
		"title": "P’TIT DÉJ’ SOLIDAIRES",
		"category": "FOOD",
		"sub_category": "Breakfast",
		"address": "Jardin d’Éole, 75019 Paris",
		"description": "Entrance at the intersection of rue d’Aubervilliers and rue du Département. Metro: Stalingrad.",
		"hours": "Mon-Sun around 8.30am"
	},
	{
		"title": "SOLIDARITÉ MIGRANTS WILSON (Breakfast)",
		"category": "FOOD",
		"sub_category": "Breakfast",
		"address": "15 avenue de la porte de la Villette, 75019 Paris",
		"description": "Metro: Porte de la Villette.",
		"hours": "Saturday 10am-12pm"
	},
	{
		"title": "L’UN EST L’AUTRE / RESTO DU CŒUR",
		"category": "FOOD",
		"sub_category": "Lunch",
		"address": "15 avenue Porte de la Villette, 75019 Paris",
		"description": "Metro: Porte de la Villette.",
		"hours": "Mon-Fri 11am-1pm, Sat-Sun 12-2pm"
	},
	{
		"title": "AERI-CANTINE DES GILETS JAUNES",
		"category": "FOOD",
		"sub_category": "Lunch",
		"address": "57 rue Étienne Marcel, 93100 Montreuil",
		"description": "Pay what you can cantine. Metro: Croix de Chavaux.",
		"hours": "Wednesday 12.30-2.30pm"
	},
	{
		"title": "LA CHORBA",
		"category": "FOOD",
		"sub_category": "Dinner",
		"address": "15 avenue Porte de la Villette, 75019 Paris",
		"description": "Halal and veggie options. Metro: Porte de la Villette.",
		"hours": "Mon-Sun 6-8pm"
	},
	{
		"title": "LA GAMELLE DE JAURÈS",
		"category": "FOOD",
		"sub_category": "Dinner",
		"address": "29 av. de la Porte d’Aubervilliers, 75018 Paris",
		"description": "Metro: Porte d’Aubervilliers.",
		"hours": "Mondays at 8pm"
	},
	{
		"title": "LA FABRIQUE DU SOURIRE",
		"category": "FOOD",
		"sub_category": "Dinner",
		"address": "Gare de Lyon, rue Roland Barthès, 75012 Paris",
		"description": "Metro: Gare de Lyon.",
		"hours": "Monday from 8pm"
	},
	{
		"title": "UNE CHORBA POUR TOUS",
		"category": "FOOD",
		"sub_category": "Dinner",
		"address": "135 boulevard de la Villette, 75019 Paris",
		"description": "In front of Metro Jaurès. Come early.",
		"hours": "Mon-Sat at 4pm"
	},
	{
		"title": "RESTOS DU CŒUR (Gare de l'Est)",
		"category": "FOOD",
		"sub_category": "Dinner",
		"address": "1 avenue de Verdun, 75010 Paris",
		"description": "Metro: Gare de l’Est.",
		"hours": "Mon, Wed, Fri 8-9pm, Sun 7.30-9pm"
	},
	{
		"title": "RESTOS DU CŒUR (République)",
		"category": "FOOD",
		"sub_category": "Dinner",
		"address": "Place de la république, 75003 Paris",
		"description": "Metro: République.",
		"hours": "Tue, Thu, Sat 8-9pm"
	},
	{
		"title": "AERI (Food parcels)",
		"category": "FOOD",
		"sub_category": "Food parcels",
		"address": "57 rue Étienne Marcel, 93100 Montreuil",
		"description": "Pay what you can fruit and vegetables. Metro: Croix de Chavaux.",
		"hours": "Monday 1.30-3pm"
	},
	{
		"title": "RESTOS DU CŒUR (10th)",
		"category": "FOOD",
		"sub_category": "Food parcels",
		"address": "18 rue Boy-Zelenski, 75010 Paris",
		"description": "Metro: Colonel Fabien. Requires registration.",
		"hours": "Tue 9am-12pm & 1.30-4.30pm, Thu 9am-12pm"
	},
	{
		"title": "BAINS-DOUCHES DES HAIES",
		"category": "SHOWERS",
		"sub_category": "Showers",
		"address": "27 rue des Haies, 75020 Paris",
		"description": "Free individual cubicles. Bring your own towel/soap. Disabled Access. Metro: Buzenval.",
		"hours": "Mon-Sun 7.30am-12.30pm. Closed 25/12 and 01/01."
	},
	{
		"title": "BAINS-DOUCHES PYRÉNÉES",
		"category": "SHOWERS",
		"sub_category": "Showers",
		"address": "296 rue des Pyrénées, 75020 Paris",
		"description": "Free individual cubicles. Metro: Pyrénées.",
		"hours": "Mon-Sat 7:30am-1:30pm, Sun 8am-12pm. Closed Wed, 25/12, 01/01."
	},
	{
		"title": "LAVERIE SOLIDAIRE",
		"category": "DAY CENTRES",
		"sub_category": "Laundry",
		"address": "1 rue Aboukir, 75002 Paris",
		"description": "Metro: Sentier. Sanitary products, sockets and computers available. Access depending on availability.",
		"hours": "Saturday 9:30am-4:30pm, come early!"
	},
	{
		"title": "HALTE HUMANITAIRE DIDEROT",
		"category": "DAY CENTRES",
		"sub_category": "Laundry",
		"address": " 164 boulevard Diderot, 75012 Paris",
		"description": "Metro: Nation. Access to washrooms, social and medical support, artistic workshops and trips.",
		"hours": "Monday-Sunday 9am-12.30pm, 2-6pm.  Closed 30th  January"
	},
	{
		"title": "HÔPITAL SAINT-LOUIS ",
		"category": "HEALTHCARE",
		"sub_category": "General health",
		"address": " 1 avenue Claude-Vellefaux, 75010 Paris ",
		"description": "By appointment only. Call on Monday, Tuesday, Thursday or Friday 10am-2pm to make an appointment; 01 42 49 91 30. Metro:  Colonel Fabien",
		"hours": "Monday-Friday from 8.30am"
	},
	{
		"title": "HÔTEL-DIEU",
		"category": "HEALTHCARE",
		"sub_category": "General health",
		"address": " 1 rue de la Cité 75004 Paris ",
		"description": "Metro: Saint Michel / Cité",
		"hours": "Closed 24th December-6th January. From 15 years and 3 months old: Without appointment 7.30am, registration at 7.30am and between 10.30am-1pm"
	},
	{
		"title": "HÔPITAL PITIÉ SALPÊTRIÈRE",
		"category": "HEALTHCARE",
		"sub_category": "Teeth",
		"address": " 47-83 bd. de l’Hôpital, 75013 Paris",
		"description": "Metro:  Saint-Marcel.",
		"hours": "Monday-Friday: 8.30am-4.30pm  Make appointment Monday-Friday 8.30am-4.30pm by calling 01 42 17 84 16 or on the website"
	},
{
        "title": "AMNESTY INTERNATIONAL",
        "category": "FREE LEGAL AID",
        "sub_category": "Asylum claims and stateless persons",
        "address": "72-76 boulevard de la Villette, 75019 Paris",
        "description": "Metro: Colonel-Fabien.",
        "hours": "Wednesday 3-6pm, Tuesday 30th December 3-6pm. Closed Wednesday 24th and 31st December",
		"phone": "01 53 38 65 65"
    },
    {
        "title": "BUS DE LA SOLIDARITÉ - PORTE D’AUBERVILLIERS",
        "category": "FREE LEGAL AID",
        "sub_category": "Immigration law",
        "address": "Avenue de la porte d’Aubervilliers, by the Jardin Anaïs Nin 75019 Paris",
        "description": "Free lawyers from the Paris Bar. For asylum and immigration law. The blue bus. Metro: Porte d’Aubervilliers. Attended by Maraude France Terre d’Asile.",
        "hours": "Fridays 2-5pm. Arrive early! Closed 26th December"
    },
    {
        "title": "BUS DE LA SOLIDARITÉ - LA CHAPELLE",
        "category": "FREE LEGAL AID",
        "sub_category": "Immigration law",
        "address": "Place de la Chapelle, 75018 Paris",
        "description": "Free lawyers from the Paris Bar. The blue bus. Metro: La Chapelle.",
        "hours": "Tuesdays 1-4pm Arrive early! Closed 30th December"
    },
    {
        "title": "CIMADE BATIGNOLLES",
        "category": "FREE LEGAL AID",
        "sub_category": "OQTF and IRTF appeals",
        "address": "46 bd. des Batignolles, 75017 Paris",
        "description": "Metro: Rome. Assistance with OQTF and IRTF appeals.",
        "hours": "Without appt: Wed 9.30am-12.45pm & 1.45-5.30pm, Thu 9.30am-12.30pm & 2-5.30pm. By appt: Wed 5-9pm, Thu 9.30am-12.30pm, 2-5.30pm, 6-9pm.",
		"phone": "01 40 08 05 34"
    },
    {
        "title": "CIMADE LUXEMBOURG",
        "category": "FREE LEGAL AID",
        "sub_category": "Residency and Asylum",
        "address": "58 rue Madame, 75006 Paris (entrance 11 rue Jean Bart)",
        "description": "Metro: Rennes / Saint Placide.",
        "hours": "Without appt: Thu 2-8pm (residency). By appt: Tue 9am-1pm (asylum), Wed 10am-12.30pm (residency).",
		"phone": "01 42 22 75 77"
    },
    {
        "title": "CIMADE FESSART",
        "category": "FREE LEGAL AID",
        "sub_category": "Legal Aid",
        "address": "25 rue Fessart, 75019 Paris",
        "description": "Metro: Jourdain. With or without appointment.",
        "hours": "Monday 6.30-9pm, Tuesday 8.30am-12.30pm",
		"phone": "01 42 45 65 07"
    },
    {
        "title": "CIMADE DENFERT-ROCHEREAU",
        "category": "FREE LEGAL AID",
        "sub_category": "Legal Aid",
        "address": "76 rue Daguerre, 75014 Paris",
        "description": "Metro: Gaité. With or without appointment.",
        "hours": "Monday 2.30-5.30pm, Wednesday 9.30am-12.30pm",
		"phone": "01 40 08 05 34"
    },
    {
        "title": "PARIS ADRESSE - INITIAL ENQUIRIES",
        "category": "DOMICILIATION",
        "sub_category": "Domiciliation service",
        "address": "10 Rue Eugénie Eboué, 75012 Paris",
        "description": "Metro: Reuilly - Diderot. Initial enquiries by appointment only via paris.fr/pages/vivre-au-quotidien-112.",
        "hours": "Monday-Friday 9am-5pm, Wednesday 9am-12.30pm"
    },
    {
        "title": "PARIS ADRESSE - POSTAL COLLECTION",
        "category": "DOMICILIATION",
        "sub_category": "Postal collection",
        "address": "90 rue Saint-Denis, 75001 Paris",
        "description": "Metro: Rambuteau. Collection of mail.",
        "hours": "Monday-Friday 8am-6pm, Thursday 8am-7pm"
    }
]